{
"type": "FeatureCollection",
"features":[
{"type":"Feature","geometry":{"type":"Point","coordinates":[20.9404,42.0312]},"properties":{"state":"MK","name":"Gostivar"}},
{"type":"Feature","geometry":{"type":"Point","coordinates":[15.7648,45.7821]},"properties":{"state":"HR","name":"Lučko"}},
{"type":"Feature","geometry":{"type":"Point","coordinates":[22.0717,44.0288]},"properties":{"state":"RS","name":"Boljevac"}},
{"type":"Feature","geometry":{"type":"Point","coordinates":[22.0875,43.1333]},"properties":{"state":"RS","name":"Dupljane"}},
{"type":"Feature","geometry":{"type":"Point","coordinates":[22.1203,43.2523]},"properties":{"state":"RS","name":"Džep"}},
{"type":"Feature","geometry":{"type":"Point","coordinates":[21.8013,43.2886]},"properties":{"state":"RS","name":"Leskovac"}},
{"type":"Feature","geometry":{"type":"Point","coordinates":[15.5487,46.5779]},"properties":{"state":"SI","name":"Spodnje Hoče"}},
{"type":"Feature","geometry":{"type":"Point","coordinates":[15.4317,46.3846]},"properties":{"state":"SI","name":"Škedenj"}},
{"type":"Feature","geometry":{"type":"Point","coordinates":[8.5195,53.6151]},"properties":{"state":"DE","name":"Bremerhaven"}},
{"type":"Feature","geometry":{"type":"Point","coordinates":[9.9173,51.2407]},"properties":{"state":"DE","name":"Niestetal"}},
{"type":"Feature","geometry":{"type":"Point","coordinates":[6.7437,51.2594]},"properties":{"state":"DE","name":"Ratingen"}},
{"type":"Feature","geometry":{"type":"Point","coordinates":[12.9056,47.2378]},"properties":{"state":"AT","name":"Maria Alm"}},
{"type":"Feature","geometry":{"type":"Point","coordinates":[16.3659,48.0562]},"properties":{"state":"AT","name":"Schwechat"}},
{"type":"Feature","geometry":{"type":"Point","coordinates":[12.7404,48.0096]},"properties":{"state":"AT","name":"Wals"}},
{"type":"Feature","geometry":{"type":"Point","coordinates":[7.5629,47.523]},"properties":{"state":"CH","name":"Basel"}},
{"type":"Feature","geometry":{"type":"Point","coordinates":[7.2583,46.1239]},"properties":{"state":"CH","name":"Bourg-Saint-Pierre"}},
{"type":"Feature","geometry":{"type":"Point","coordinates":[8.4499,47.8605]},"properties":{"state":"CH","name":"Kloten"}},
{"type":"Feature","geometry":{"type":"Point","coordinates":[6.7032,47.073]},"properties":{"state":"CH","name":"La Chaux-de-Fonds"}},
{"type":"Feature","geometry":{"type":"Point","coordinates":[6.8508,46.1621]},"properties":{"state":"CH","name":"Martigny-Croix"}},
{"type":"Feature","geometry":{"type":"Point","coordinates":[24.4555,58.1733]},"properties":{"state":"EE","name":"Uulu"}},
{"type":"Feature","geometry":{"type":"Point","coordinates":[-6.455,38.8044]},"properties":{"state":"ES","name":"Mérida"}},
{"type":"Feature","geometry":{"type":"Point","coordinates":[-3.7415,43.1359]},"properties":{"state":"ES","name":"Solares"}},
{"type":"Feature","geometry":{"type":"Point","coordinates":[22.7395,60.7011]},"properties":{"state":"FI","name":"Aura"}},
{"type":"Feature","geometry":{"type":"Point","coordinates":[24.6399,61.0563]},"properties":{"state":"FI","name":"Hauho"}},
{"type":"Feature","geometry":{"type":"Point","coordinates":[-0.6571,44.8399]},"properties":{"state":"FR","name":"Bassens"}},
{"type":"Feature","geometry":{"type":"Point","coordinates":[7.6339,43.8385]},"properties":{"state":"FR","name":"La Turbie"}},
{"type":"Feature","geometry":{"type":"Point","coordinates":[2.2742,47.9411]},"properties":{"state":"FR","name":"Montargis"}},
{"type":"Feature","geometry":{"type":"Point","coordinates":[2.5123,44.3429]},"properties":{"state":"FR","name":"Rodez"}},
{"type":"Feature","geometry":{"type":"Point","coordinates":[4.0898,47.8717]},"properties":{"state":"FR","name":"Tanlay"}},
{"type":"Feature","geometry":{"type":"Point","coordinates":[18.8943,45.6243]},"properties":{"state":"HR","name":"Nemetin"}},
{"type":"Feature","geometry":{"type":"Point","coordinates":[13.1861,43.7045]},"properties":{"state":"IT","name":"Falconara"}},
{"type":"Feature","geometry":{"type":"Point","coordinates":[12.0248,42.4875]},"properties":{"state":"IT","name":"Marta"}},
{"type":"Feature","geometry":{"type":"Point","coordinates":[11.6448,42.4578]},"properties":{"state":"IT","name":"Montalto di Castro"}},
{"type":"Feature","geometry":{"type":"Point","coordinates":[24.7256,54.636]},"properties":{"state":"LT","name":"Grigiškės"}},
{"type":"Feature","geometry":{"type":"Point","coordinates":[23.6626,56.7756]},"properties":{"state":"LV","name":"Jaunmārupe"}},
{"type":"Feature","geometry":{"type":"Point","coordinates":[10.0015,59.7248]},"properties":{"state":"NO","name":"Drammen"}},
{"type":"Feature","geometry":{"type":"Point","coordinates":[22.8408,46.1856]},"properties":{"state":"RO","name":"Șoimuș"}},
{"type":"Feature","geometry":{"type":"Point","coordinates":[26.7364,45.0789]},"properties":{"state":"RO","name":"Urziceni"}},
{"type":"Feature","geometry":{"type":"Point","coordinates":[28.477,59.4021]},"properties":{"state":"RU","name":"Kingisepp"}},
{"type":"Feature","geometry":{"type":"Point","coordinates":[28.0023,41.6627]},"properties":{"state":"TR","name":"Muratbey"}},
{"type":"Feature","geometry":{"type":"Point","coordinates":[20.2577,42.7429]},"properties":{"state":"XK","name":"Pejë"}},
{"type":"Feature","geometry":{"type":"Point","coordinates":[20.136,41.255]},"properties":{"state":"AL","name":"Elbasan"}},
{"type":"Feature","geometry":{"type":"Point","coordinates":[19.8944,41.7479]},"properties":{"state":"AL","name":"Kamëz"}},
{"type":"Feature","geometry":{"type":"Point","coordinates":[19.9643,41.6412]},"properties":{"state":"AL","name":"Kashar"}},
{"type":"Feature","geometry":{"type":"Point","coordinates":[20.0058,41.8891]},"properties":{"state":"AL","name":"Luz"}},
{"type":"Feature","geometry":{"type":"Point","coordinates":[19.9435,41.258]},"properties":{"state":"AL","name":"Papër"}},
{"type":"Feature","geometry":{"type":"Point","coordinates":[19.8273,41.5992]},"properties":{"state":"AL","name":"Vorë"}},
{"type":"Feature","geometry":{"type":"Point","coordinates":[13.4176,47.2377]},"properties":{"state":"AT","name":"Bischofshofen"}},
{"type":"Feature","geometry":{"type":"Point","coordinates":[9.6925,47.3338]},"properties":{"state":"AT","name":"Bregenz"}},
{"type":"Feature","geometry":{"type":"Point","coordinates":[16.3511,47.045]},"properties":{"state":"AT","name":"Großwilfersdorf"}},
{"type":"Feature","geometry":{"type":"Point","coordinates":[12.9208,46.6894]},"properties":{"state":"AT","name":"Heiligenblut am Großglockner"}},
{"type":"Feature","geometry":{"type":"Point","coordinates":[9.529,47.3256]},"properties":{"state":"AT","name":"Höchst"}},
{"type":"Feature","geometry":{"type":"Point","coordinates":[13.0199,47.1076]},"properties":{"state":"AT","name":"Höfl-Zachhof"}},
{"type":"Feature","geometry":{"type":"Point","coordinates":[10.6384,47.4064]},"properties":{"state":"AT","name":"Leithen"}},
{"type":"Feature","geometry":{"type":"Point","coordinates":[13.2996,47.04]},"properties":{"state":"AT","name":"Lendorf"}},
{"type":"Feature","geometry":{"type":"Point","coordinates":[12.5324,47.424]},"properties":{"state":"AT","name":"Leogang"}},
{"type":"Feature","geometry":{"type":"Point","coordinates":[14.6683,48.2797]},"properties":{"state":"AT","name":"Mauthausen"}},
{"type":"Feature","geometry":{"type":"Point","coordinates":[13.2473,46.6159]},"properties":{"state":"AT","name":"Michelhofen"}},
{"type":"Feature","geometry":{"type":"Point","coordinates":[14.6421,48.2231]},"properties":{"state":"AT","name":"Pyburg"}},
{"type":"Feature","geometry":{"type":"Point","coordinates":[14.494,48.189]},"properties":{"state":"AT","name":"Rems"}},
{"type":"Feature","geometry":{"type":"Point","coordinates":[12.7456,47.3263]},"properties":{"state":"AT","name":"Saalfelden am Steinernen Meer"}},
{"type":"Feature","geometry":{"type":"Point","coordinates":[14.6243,47.4463]},"properties":{"state":"AT","name":"St. Michael"}},
{"type":"Feature","geometry":{"type":"Point","coordinates":[16.0678,48.5594]},"properties":{"state":"AT","name":"Stockerau"}},
{"type":"Feature","geometry":{"type":"Point","coordinates":[15.109,47.1823]},"properties":{"state":"AT","name":"Thal"}},
{"type":"Feature","geometry":{"type":"Point","coordinates":[14.5245,48.3251]},"properties":{"state":"AT","name":"Unterweitersdorf"}},
{"type":"Feature","geometry":{"type":"Point","coordinates":[16.1321,47.8858]},"properties":{"state":"AT","name":"Vösendorf"}},
{"type":"Feature","geometry":{"type":"Point","coordinates":[16.1733,47.7406]},"properties":{"state":"AT","name":"Wiener Neudorf"}},
{"type":"Feature","geometry":{"type":"Point","coordinates":[13.0587,46.7132]},"properties":{"state":"AT","name":"Winklern"}},
{"type":"Feature","geometry":{"type":"Point","coordinates":[16.7066,48.2775]},"properties":{"state":"AT","name":"Wolfsthal"}},
{"type":"Feature","geometry":{"type":"Point","coordinates":[16.3442,44.6894]},"properties":{"state":"BA","name":"Bosanski Petrovac"}},
{"type":"Feature","geometry":{"type":"Point","coordinates":[17.8571,43.3472]},"properties":{"state":"BA","name":"Buna"}},
{"type":"Feature","geometry":{"type":"Point","coordinates":[17.73,43.2648]},"properties":{"state":"BA","name":"Čapljina"}},
{"type":"Feature","geometry":{"type":"Point","coordinates":[18.1954,44.8436]},"properties":{"state":"BA","name":"Doboj"}},
{"type":"Feature","geometry":{"type":"Point","coordinates":[17.3687,44.2844]},"properties":{"state":"BA","name":"Donji Vakuf"}},
{"type":"Feature","geometry":{"type":"Point","coordinates":[18.6285,44.5813]},"properties":{"state":"BA","name":"Husino"}},
{"type":"Feature","geometry":{"type":"Point","coordinates":[17.2317,44.5211]},"properties":{"state":"BA","name":"Jajce"}},
{"type":"Feature","geometry":{"type":"Point","coordinates":[16.8456,44.5411]},"properties":{"state":"BA","name":"Jezero"}},
{"type":"Feature","geometry":{"type":"Point","coordinates":[18.3531,44.712]},"properties":{"state":"BA","name":"Lukavac"}},
{"type":"Feature","geometry":{"type":"Point","coordinates":[19.1383,44.5338]},"properties":{"state":"BA","name":"Memići"}},
{"type":"Feature","geometry":{"type":"Point","coordinates":[16.1412,44.7867]},"properties":{"state":"BA","name":"Pritoka"}},
{"type":"Feature","geometry":{"type":"Point","coordinates":[18.3786,44.1926]},"properties":{"state":"BA","name":"Semizovac"}},
{"type":"Feature","geometry":{"type":"Point","coordinates":[18.0099,43.1517]},"properties":{"state":"BA","name":"Stolac"}},
{"type":"Feature","geometry":{"type":"Point","coordinates":[18.4428,42.8994]},"properties":{"state":"BA","name":"Trebinje"}},
{"type":"Feature","geometry":{"type":"Point","coordinates":[17.8062,44.2083]},"properties":{"state":"BA","name":"Vitez"}},
{"type":"Feature","geometry":{"type":"Point","coordinates":[26.9746,42.5192]},"properties":{"state":"BG","name":"Debelt"}},
{"type":"Feature","geometry":{"type":"Point","coordinates":[23.2219,42.6094]},"properties":{"state":"BG","name":"German"}},
{"type":"Feature","geometry":{"type":"Point","coordinates":[23.1,43.1617]},"properties":{"state":"BG","name":"Kostinbrod"}},
{"type":"Feature","geometry":{"type":"Point","coordinates":[23.2779,43.683]},"properties":{"state":"BG","name":"Montana"}},
{"type":"Feature","geometry":{"type":"Point","coordinates":[23.2593,43.4095]},"properties":{"state":"BG","name":"Petrohan"}},
{"type":"Feature","geometry":{"type":"Point","coordinates":[25.6158,43.5794]},"properties":{"state":"BG","name":"Polsko Kosovo"}},
{"type":"Feature","geometry":{"type":"Point","coordinates":[27.8154,42.974]},"properties":{"state":"BG","name":"Pomorie"}},
{"type":"Feature","geometry":{"type":"Point","coordinates":[26.5225,43.7078]},"properties":{"state":"BG","name":"Razgrad"}},
{"type":"Feature","geometry":{"type":"Point","coordinates":[22.6801,43.9967]},"properties":{"state":"BG","name":"Ruzhintsi"}},
{"type":"Feature","geometry":{"type":"Point","coordinates":[26.8151,42.5368]},"properties":{"state":"BG","name":"Sredets"}},
{"type":"Feature","geometry":{"type":"Point","coordinates":[27.7089,43.137]},"properties":{"state":"BG","name":"Staro Oryahovo"}},
{"type":"Feature","geometry":{"type":"Point","coordinates":[24.2298,42.8904]},"properties":{"state":"BG","name":"Zlatitsa"}},
{"type":"Feature","geometry":{"type":"Point","coordinates":[24.2256,43.6021]},"properties":{"state":"BG","name":"Zlatna Panega"}},
{"type":"Feature","geometry":{"type":"Point","coordinates":[7.9719,46.5741]},"properties":{"state":"CH","name":"Belvédère"}},
{"type":"Feature","geometry":{"type":"Point","coordinates":[6.2731,46.0979]},"properties":{"state":"CH","name":"Carouge"}},
{"type":"Feature","geometry":{"type":"Point","coordinates":[6.5385,46.9234]},"properties":{"state":"CH","name":"Le Locle"}},
{"type":"Feature","geometry":{"type":"Point","coordinates":[5.8678,46.2728]},"properties":{"state":"CH","name":"Meyrin"}},
{"type":"Feature","geometry":{"type":"Point","coordinates":[8.0742,46.3561]},"properties":{"state":"CH","name":"Obergoms"}},
{"type":"Feature","geometry":{"type":"Point","coordinates":[6.0183,46.1207]},"properties":{"state":"CH","name":"Plan-les-Ouates"}},
{"type":"Feature","geometry":{"type":"Point","coordinates":[8.4051,46.7649]},"properties":{"state":"CH","name":"Realp"}},
{"type":"Feature","geometry":{"type":"Point","coordinates":[7.0355,46.1426]},"properties":{"state":"CH","name":"Sembrancher"}},
{"type":"Feature","geometry":{"type":"Point","coordinates":[9.4572,47.2671]},"properties":{"state":"CH","name":"St. Margrethen"}},
{"type":"Feature","geometry":{"type":"Point","coordinates":[7.7877,46.351]},"properties":{"state":"CH","name":"Susten"}},
{"type":"Feature","geometry":{"type":"Point","coordinates":[6.1441,46.2059]},"properties":{"state":"CH","name":"Vernier"}},
{"type":"Feature","geometry":{"type":"Point","coordinates":[6.5965,46.4435]},"properties":{"state":"CH","name":"Versoix"}},
{"type":"Feature","geometry":{"type":"Point","coordinates":[13.3655,52.6869]},"properties":{"state":"DE","name":"Ahrensfelde"}},
{"type":"Feature","geometry":{"type":"Point","coordinates":[9.7413,52.8897]},"properties":{"state":"DE","name":"Dorfmark"}},
{"type":"Feature","geometry":{"type":"Point","coordinates":[10.6704,51.1542]},"properties":{"state":"DE","name":"Elxleben"}},
{"type":"Feature","geometry":{"type":"Point","coordinates":[10.5855,49.8095]},"properties":{"state":"DE","name":"Erlangen"}},
{"type":"Feature","geometry":{"type":"Point","coordinates":[10.6937,47.7604]},"properties":{"state":"DE","name":"Ettal"}},
{"type":"Feature","geometry":{"type":"Point","coordinates":[10.8808,47.6616]},"properties":{"state":"DE","name":"Garmisch-Partenkirchen"}},
{"type":"Feature","geometry":{"type":"Point","coordinates":[8.7722,49.1863]},"properties":{"state":"DE","name":"Ittlingen"}},
{"type":"Feature","geometry":{"type":"Point","coordinates":[8.2403,49.5281]},"properties":{"state":"DE","name":"Ludwigshafen am Rhein"}},
{"type":"Feature","geometry":{"type":"Point","coordinates":[7.7519,49.4478]},"properties":{"state":"DE","name":"Maxdorf"}},
{"type":"Feature","geometry":{"type":"Point","coordinates":[12.3694,53.9205]},"properties":{"state":"DE","name":"Neu Roggentin"}},
{"type":"Feature","geometry":{"type":"Point","coordinates":[11.1917,54.0527]},"properties":{"state":"DE","name":"Pötenitz"}},
{"type":"Feature","geometry":{"type":"Point","coordinates":[12.0732,51.3874]},"properties":{"state":"DE","name":"Schkeuditz"}},
{"type":"Feature","geometry":{"type":"Point","coordinates":[25.816,58.6999]},"properties":{"state":"EE","name":"Adavere"}},
{"type":"Feature","geometry":{"type":"Point","coordinates":[25.4917,58.0998]},"properties":{"state":"EE","name":"Ala"}},
{"type":"Feature","geometry":{"type":"Point","coordinates":[25.4987,58.9582]},"properties":{"state":"EE","name":"Anna"}},
{"type":"Feature","geometry":{"type":"Point","coordinates":[25.0013,59.2565]},"properties":{"state":"EE","name":"Jüri"}},
{"type":"Feature","geometry":{"type":"Point","coordinates":[26.6661,58.0332]},"properties":{"state":"EE","name":"Kambja"}},
{"type":"Feature","geometry":{"type":"Point","coordinates":[25.2927,58.122]},"properties":{"state":"EE","name":"Karksi-Nuia"}},
{"type":"Feature","geometry":{"type":"Point","coordinates":[25.1751,58.2107]},"properties":{"state":"EE","name":"Kõpu"}},
{"type":"Feature","geometry":{"type":"Point","coordinates":[25.7873,59.4452]},"properties":{"state":"EE","name":"Kuusalu"}},
{"type":"Feature","geometry":{"type":"Point","coordinates":[24.2664,59.2922]},"properties":{"state":"EE","name":"Laagri"}},
{"type":"Feature","geometry":{"type":"Point","coordinates":[24.7215,59.1928]},"properties":{"state":"EE","name":"Luige"}},
{"type":"Feature","geometry":{"type":"Point","coordinates":[25.251,59.4458]},"properties":{"state":"EE","name":"Maardu"}},
{"type":"Feature","geometry":{"type":"Point","coordinates":[25.4037,59.5303]},"properties":{"state":"EE","name":"Muuga"}},
{"type":"Feature","geometry":{"type":"Point","coordinates":[26.0942,58.0897]},"properties":{"state":"EE","name":"Rõngu"}},
{"type":"Feature","geometry":{"type":"Point","coordinates":[24.1716,59.2171]},"properties":{"state":"EE","name":"Saue"}},
{"type":"Feature","geometry":{"type":"Point","coordinates":[26.3005,58.5601]},"properties":{"state":"EE","name":"Tähtvere"}},
{"type":"Feature","geometry":{"type":"Point","coordinates":[26.0047,57.8604]},"properties":{"state":"EE","name":"Valga"}},
{"type":"Feature","geometry":{"type":"Point","coordinates":[-8.178,43.2835]},"properties":{"state":"ES","name":"A Seara"}},
{"type":"Feature","geometry":{"type":"Point","coordinates":[-8.0669,43.2842]},"properties":{"state":"ES","name":"Adelán"}},
{"type":"Feature","geometry":{"type":"Point","coordinates":[-2.3815,38.6712]},"properties":{"state":"ES","name":"Alcaraz"}},
{"type":"Feature","geometry":{"type":"Point","coordinates":[-0.5752,38.5755]},"properties":{"state":"ES","name":"Algueña"}},
{"type":"Feature","geometry":{"type":"Point","coordinates":[-1.5058,37.7549]},"properties":{"state":"ES","name":"Alhama de Murcia"}},
{"type":"Feature","geometry":{"type":"Point","coordinates":[-6.8116,37.7432]},"properties":{"state":"ES","name":"Aracena"}},
{"type":"Feature","geometry":{"type":"Point","coordinates":[-2.9731,40.0885]},"properties":{"state":"ES","name":"Arganda del Rey"}},
{"type":"Feature","geometry":{"type":"Point","coordinates":[-1.8185,42.8454]},"properties":{"state":"ES","name":"Arraizko Bentak"}},
{"type":"Feature","geometry":{"type":"Point","coordinates":[-2.8538,38.3953]},"properties":{"state":"ES","name":"Arroyo del Ojanco"}},
{"type":"Feature","geometry":{"type":"Point","coordinates":[-4.4339,38.1229]},"properties":{"state":"ES","name":"Azuel"}},
{"type":"Feature","geometry":{"type":"Point","coordinates":[-1.5398,40.9375]},"properties":{"state":"ES","name":"Calamocha"}},
{"type":"Feature","geometry":{"type":"Point","coordinates":[-1.8558,41.3451]},"properties":{"state":"ES","name":"Calatayud"}},
{"type":"Feature","geometry":{"type":"Point","coordinates":[-8.1263,43.2756]},"properties":{"state":"ES","name":"Castro de Ouro"}},
{"type":"Feature","geometry":{"type":"Point","coordinates":[-2.1206,41.5774]},"properties":{"state":"ES","name":"Cervera de la Cañada"}},
{"type":"Feature","geometry":{"type":"Point","coordinates":[-7.196,37.7641]},"properties":{"state":"ES","name":"El Repilado"}},
{"type":"Feature","geometry":{"type":"Point","coordinates":[-0.2312,39.0147]},"properties":{"state":"ES","name":"El Romaní"}},
{"type":"Feature","geometry":{"type":"Point","coordinates":[-4.4973,42.3696]},"properties":{"state":"ES","name":"Las Quintanillas"}},
{"type":"Feature","geometry":{"type":"Point","coordinates":[-0.8317,38.491]},"properties":{"state":"ES","name":"Mahoya"}},
{"type":"Feature","geometry":{"type":"Point","coordinates":[-1.5138,40.1163]},"properties":{"state":"ES","name":"Mariana"}},
{"type":"Feature","geometry":{"type":"Point","coordinates":[-6.0137,40.4292]},"properties":{"state":"ES","name":"Mozárbez"}},
{"type":"Feature","geometry":{"type":"Point","coordinates":[-1.8229,41.1255]},"properties":{"state":"ES","name":"Paracuellos"}},
{"type":"Feature","geometry":{"type":"Point","coordinates":[-4.4506,38.9837]},"properties":{"state":"ES","name":"Piedrabuna"}},
{"type":"Feature","geometry":{"type":"Point","coordinates":[-7.4478,37.777]},"properties":{"state":"ES","name":"Rosal de la Frontera"}},
{"type":"Feature","geometry":{"type":"Point","coordinates":[-5.9299,38.8905]},"properties":{"state":"ES","name":"Santa Amalia"}},
{"type":"Feature","geometry":{"type":"Point","coordinates":[-3.2889,41.7224]},"properties":{"state":"ES","name":"Toledillo"}},
{"type":"Feature","geometry":{"type":"Point","coordinates":[-6.1225,40.9816]},"properties":{"state":"ES","name":"Villamayor"}},
{"type":"Feature","geometry":{"type":"Point","coordinates":[-2.5227,38.5697]},"properties":{"state":"ES","name":"Villapalacios"}},
{"type":"Feature","geometry":{"type":"Point","coordinates":[-1.2406,40.2316]},"properties":{"state":"ES","name":"Villastar"}},
{"type":"Feature","geometry":{"type":"Point","coordinates":[24.4176,60.4031]},"properties":{"state":"FI","name":"Espoo"}},
{"type":"Feature","geometry":{"type":"Point","coordinates":[22.4658,61.2255]},"properties":{"state":"FI","name":"Huittinen"}},
{"type":"Feature","geometry":{"type":"Point","coordinates":[26.815,60.7426]},"properties":{"state":"FI","name":"Inkeroinen"}},
{"type":"Feature","geometry":{"type":"Point","coordinates":[23.7145,61.3235]},"properties":{"state":"FI","name":"Lahdesjärvi"}},
{"type":"Feature","geometry":{"type":"Point","coordinates":[21.297,61.5829]},"properties":{"state":"FI","name":"Mäntyluoto"}},
{"type":"Feature","geometry":{"type":"Point","coordinates":[23.1626,61.2929]},"properties":{"state":"FI","name":"Nokia"}},
{"type":"Feature","geometry":{"type":"Point","coordinates":[21.5402,61.3541]},"properties":{"state":"FI","name":"Tiiliruukki"}},
{"type":"Feature","geometry":{"type":"Point","coordinates":[21.4684,60.7496]},"properties":{"state":"FI","name":"Uusikaupunki"}},
{"type":"Feature","geometry":{"type":"Point","coordinates":[24.7629,60.5569]},"properties":{"state":"FI","name":"Vantaa"}},
{"type":"Feature","geometry":{"type":"Point","coordinates":[9.4613,42.1597]},"properties":{"state":"FR","name":"Aleria"}},
{"type":"Feature","geometry":{"type":"Point","coordinates":[1.8816,44.9912]},"properties":{"state":"FR","name":"Altillac"}},
{"type":"Feature","geometry":{"type":"Point","coordinates":[-0.7068,43.1697]},"properties":{"state":"FR","name":"Artix"}},
{"type":"Feature","geometry":{"type":"Point","coordinates":[1.0045,43.6088]},"properties":{"state":"FR","name":"Blagnac"}},
{"type":"Feature","geometry":{"type":"Point","coordinates":[1.7901,45.9022]},"properties":{"state":"FR","name":"Bourganeuf"}},
{"type":"Feature","geometry":{"type":"Point","coordinates":[4.4982,47.9764]},"properties":{"state":"FR","name":"Brion-sur-Ource"}},
{"type":"Feature","geometry":{"type":"Point","coordinates":[2.6533,45.8709]},"properties":{"state":"FR","name":"Bromont-Lamothe"}},
{"type":"Feature","geometry":{"type":"Point","coordinates":[9.1009,42.2141]},"properties":{"state":"FR","name":"Corte"}},
{"type":"Feature","geometry":{"type":"Point","coordinates":[2.6398,48.0177]},"properties":{"state":"FR","name":"Courtenay"}},
{"type":"Feature","geometry":{"type":"Point","coordinates":[3.6258,48.3636]},"properties":{"state":"FR","name":"Estissac"}},
{"type":"Feature","geometry":{"type":"Point","coordinates":[6.0794,46.4259]},"properties":{"state":"FR","name":"Ferney-Voltaire"}},
{"type":"Feature","geometry":{"type":"Point","coordinates":[1.1825,43.7747]},"properties":{"state":"FR","name":"Gagnac-sur-Garonne"}},
{"type":"Feature","geometry":{"type":"Point","coordinates":[2.613,49.1995]},"properties":{"state":"FR","name":"Gonesse"}},
{"type":"Feature","geometry":{"type":"Point","coordinates":[2.4044,49.3535]},"properties":{"state":"FR","name":"Goussainville"}},
{"type":"Feature","geometry":{"type":"Point","coordinates":[1.8416,46.9924]},"properties":{"state":"FR","name":"Issoudun"}},
{"type":"Feature","geometry":{"type":"Point","coordinates":[2.2132,46.8964]},"properties":{"state":"FR","name":"La Chapelle-Saint-Ursin"}},
{"type":"Feature","geometry":{"type":"Point","coordinates":[4.6927,43.4895]},"properties":{"state":"FR","name":"La Mède"}},
{"type":"Feature","geometry":{"type":"Point","coordinates":[2.4524,44.2304]},"properties":{"state":"FR","name":"La Primaube"}},
{"type":"Feature","geometry":{"type":"Point","coordinates":[-0.6218,47.0778]},"properties":{"state":"FR","name":"La Salle-de-Vihiers"}},
{"type":"Feature","geometry":{"type":"Point","coordinates":[1.9892,45.888]},"properties":{"state":"FR","name":"La Villeneuve"}},
{"type":"Feature","geometry":{"type":"Point","coordinates":[2.0902,44.5163]},"properties":{"state":"FR","name":"Laroque Bouillac"}},
{"type":"Feature","geometry":{"type":"Point","coordinates":[1.9165,44.5993]},"properties":{"state":"FR","name":"Le Bourg"}},
{"type":"Feature","geometry":{"type":"Point","coordinates":[0.6902,46.273]},"properties":{"state":"FR","name":"Le Pont"}},
{"type":"Feature","geometry":{"type":"Point","coordinates":[-1.4489,44.7521]},"properties":{"state":"FR","name":"Le Temple"}},
{"type":"Feature","geometry":{"type":"Point","coordinates":[-0.0726,46.9539]},"properties":{"state":"FR","name":"Les Trois-Moutiers"}},
{"type":"Feature","geometry":{"type":"Point","coordinates":[2.1511,45.8778]},"properties":{"state":"FR","name":"Létrade"}},
{"type":"Feature","geometry":{"type":"Point","coordinates":[5.1201,44.3043]},"properties":{"state":"FR","name":"Nyons"}},
{"type":"Feature","geometry":{"type":"Point","coordinates":[1.6997,45.8065]},"properties":{"state":"FR","name":"Peyrat-le-Château"}},
{"type":"Feature","geometry":{"type":"Point","coordinates":[1.7831,49.0727]},"properties":{"state":"FR","name":"Poissy"}},
{"type":"Feature","geometry":{"type":"Point","coordinates":[4.0052,44.5959]},"properties":{"state":"FR","name":"Pont-de-Labeaume"}},
{"type":"Feature","geometry":{"type":"Point","coordinates":[9.1383,42.5231]},"properties":{"state":"FR","name":"Ponte Leccia"}},
{"type":"Feature","geometry":{"type":"Point","coordinates":[0.2852,47.1953]},"properties":{"state":"FR","name":"Rigny-Ussé"}},
{"type":"Feature","geometry":{"type":"Point","coordinates":[2.6157,49.2518]},"properties":{"state":"FR","name":"Roissy-en-France"}},
{"type":"Feature","geometry":{"type":"Point","coordinates":[5.4048,44.3972]},"properties":{"state":"FR","name":"Rosans"}},
{"type":"Feature","geometry":{"type":"Point","coordinates":[0.0523,45.5917]},"properties":{"state":"FR","name":"Roumazières-Loubert"}},
{"type":"Feature","geometry":{"type":"Point","coordinates":[6.3041,44.4693]},"properties":{"state":"FR","name":"Rousset"}},
{"type":"Feature","geometry":{"type":"Point","coordinates":[1.9816,44.7576]},"properties":{"state":"FR","name":"Saint-Céré"}},
{"type":"Feature","geometry":{"type":"Point","coordinates":[5.0702,45.7187]},"properties":{"state":"FR","name":"Saint-Priest"}},
{"type":"Feature","geometry":{"type":"Point","coordinates":[9.0106,41.6431]},"properties":{"state":"FR","name":"Sartène"}},
{"type":"Feature","geometry":{"type":"Point","coordinates":[1.434,47.2406]},"properties":{"state":"FR","name":"Selles-sur-Cher"}},
{"type":"Feature","geometry":{"type":"Point","coordinates":[3.8462,46.3139]},"properties":{"state":"FR","name":"Urbise"}},
{"type":"Feature","geometry":{"type":"Point","coordinates":[-1.1578,47.0783]},"properties":{"state":"FR","name":"Vallet"}},
{"type":"Feature","geometry":{"type":"Point","coordinates":[-0.1421,48.6703]},"properties":{"state":"FR","name":"Vimoutiers"}},
{"type":"Feature","geometry":{"type":"Point","coordinates":[15.4436,43.9811]},"properties":{"state":"HR","name":"Bibinje"}},
{"type":"Feature","geometry":{"type":"Point","coordinates":[16.011,45.8505]},"properties":{"state":"HR","name":"Blato"}},
{"type":"Feature","geometry":{"type":"Point","coordinates":[15.6779,45.327]},"properties":{"state":"HR","name":"Donje Taborište"}},
{"type":"Feature","geometry":{"type":"Point","coordinates":[18.1368,42.8185]},"properties":{"state":"HR","name":"Dubrovnik"}},
{"type":"Feature","geometry":{"type":"Point","coordinates":[16.6259,43.8217]},"properties":{"state":"HR","name":"Dugopolje"}},
{"type":"Feature","geometry":{"type":"Point","coordinates":[15.6548,45.081]},"properties":{"state":"HR","name":"Grabovac"}},
{"type":"Feature","geometry":{"type":"Point","coordinates":[15.5611,45.6233]},"properties":{"state":"HR","name":"Karlovac"}},
{"type":"Feature","geometry":{"type":"Point","coordinates":[15.7071,44.9049]},"properties":{"state":"HR","name":"Plitvička Jezera"}},
{"type":"Feature","geometry":{"type":"Point","coordinates":[14.9726,45.076]},"properties":{"state":"HR","name":"Senj"}},
{"type":"Feature","geometry":{"type":"Point","coordinates":[15.6321,45.2587]},"properties":{"state":"HR","name":"Slunj"}},
{"type":"Feature","geometry":{"type":"Point","coordinates":[19.0861,45.4707]},"properties":{"state":"HR","name":"Vukovar"}},
{"type":"Feature","geometry":{"type":"Point","coordinates":[7.1408,45.6813]},"properties":{"state":"IT","name":"Aosta"}},
{"type":"Feature","geometry":{"type":"Point","coordinates":[13.1515,41.3767]},"properties":{"state":"IT","name":"Aprilia"}},
{"type":"Feature","geometry":{"type":"Point","coordinates":[13.2016,41.5485]},"properties":{"state":"IT","name":"Artena"}},
{"type":"Feature","geometry":{"type":"Point","coordinates":[15.1058,37.28]},"properties":{"state":"IT","name":"Augusta"}},
{"type":"Feature","geometry":{"type":"Point","coordinates":[12.7242,43.2797]},"properties":{"state":"IT","name":"Camponocecchio"}},
{"type":"Feature","geometry":{"type":"Point","coordinates":[9.4599,39.9705]},"properties":{"state":"IT","name":"Cardedu"}},
{"type":"Feature","geometry":{"type":"Point","coordinates":[10.2386,44.4116]},"properties":{"state":"IT","name":"Castelnovo ne' Monti"}},
{"type":"Feature","geometry":{"type":"Point","coordinates":[7.5008,44.3596]},"properties":{"state":"IT","name":"Cuneo"}},
{"type":"Feature","geometry":{"type":"Point","coordinates":[9.423,40.2713]},"properties":{"state":"IT","name":"Dorgali"}},
{"type":"Feature","geometry":{"type":"Point","coordinates":[11.7162,44.9464]},"properties":{"state":"IT","name":"Ferrara"}},
{"type":"Feature","geometry":{"type":"Point","coordinates":[8.517,45.5287]},"properties":{"state":"IT","name":"Inveruno"}},
{"type":"Feature","geometry":{"type":"Point","coordinates":[16.6544,41.0249]},"properties":{"state":"IT","name":"Modugno"}},
{"type":"Feature","geometry":{"type":"Point","coordinates":[9.2155,39.4587]},"properties":{"state":"IT","name":"Monserrato"}},
{"type":"Feature","geometry":{"type":"Point","coordinates":[9.9632,44.3808]},"properties":{"state":"IT","name":"Monteduro"}},
{"type":"Feature","geometry":{"type":"Point","coordinates":[9.0737,40.871]},"properties":{"state":"IT","name":"Perfugas"}},
{"type":"Feature","geometry":{"type":"Point","coordinates":[12.5511,43.9016]},"properties":{"state":"IT","name":"Pesaro"}},
{"type":"Feature","geometry":{"type":"Point","coordinates":[9.736,44.8747]},"properties":{"state":"IT","name":"Piacenza"}},
{"type":"Feature","geometry":{"type":"Point","coordinates":[9.9141,44.7322]},"properties":{"state":"IT","name":"Ponte Taro"}},
{"type":"Feature","geometry":{"type":"Point","coordinates":[10.7064,43.7558]},"properties":{"state":"IT","name":"Pontedera"}},
{"type":"Feature","geometry":{"type":"Point","coordinates":[9.3445,41.1335]},"properties":{"state":"IT","name":"Porto Pozzo"}},
{"type":"Feature","geometry":{"type":"Point","coordinates":[8.3072,40.8889]},"properties":{"state":"IT","name":"Porto Torres"}},
{"type":"Feature","geometry":{"type":"Point","coordinates":[15.2893,40.3205]},"properties":{"state":"IT","name":"Postiglione"}},
{"type":"Feature","geometry":{"type":"Point","coordinates":[14.0433,40.8446]},"properties":{"state":"IT","name":"Pozzuoli"}},
{"type":"Feature","geometry":{"type":"Point","coordinates":[10.7154,44.6016]},"properties":{"state":"IT","name":"Reggio nell'Emilia"}},
{"type":"Feature","geometry":{"type":"Point","coordinates":[11.6677,44.5034]},"properties":{"state":"IT","name":"Roveri"}},
{"type":"Feature","geometry":{"type":"Point","coordinates":[9.5723,39.5615]},"properties":{"state":"IT","name":"San Gregorio"}},
{"type":"Feature","geometry":{"type":"Point","coordinates":[14.262,41.6931]},"properties":{"state":"IT","name":"Santacaterina"}},
{"type":"Feature","geometry":{"type":"Point","coordinates":[15.1143,40.4963]},"properties":{"state":"IT","name":"Scorzo"}},
{"type":"Feature","geometry":{"type":"Point","coordinates":[10.762,43.4579]},"properties":{"state":"IT","name":"Selvatelle"}},
{"type":"Feature","geometry":{"type":"Point","coordinates":[11.2465,43.6123]},"properties":{"state":"IT","name":"Tavarnuzze"}},
{"type":"Feature","geometry":{"type":"Point","coordinates":[12.2352,42.2715]},"properties":{"state":"IT","name":"Tragliatella Campitello"}},
{"type":"Feature","geometry":{"type":"Point","coordinates":[12.0544,43.4638]},"properties":{"state":"IT","name":"Trestina"}},
{"type":"Feature","geometry":{"type":"Point","coordinates":[11.922,42.5438]},"properties":{"state":"IT","name":"Valentano"}},
{"type":"Feature","geometry":{"type":"Point","coordinates":[10.8786,44.5063]},"properties":{"state":"IT","name":"Zola Predosa"}},
{"type":"Feature","geometry":{"type":"Point","coordinates":[23.5752,56.0089]},"properties":{"state":"LT","name":"Ginkūnai"}},
{"type":"Feature","geometry":{"type":"Point","coordinates":[24.4303,55.0078]},"properties":{"state":"LT","name":"Karmėlava"}},
{"type":"Feature","geometry":{"type":"Point","coordinates":[21.9219,56.0293]},"properties":{"state":"LT","name":"Kartena"}},
{"type":"Feature","geometry":{"type":"Point","coordinates":[22.7985,54.6424]},"properties":{"state":"LT","name":"Kybartai"}},
{"type":"Feature","geometry":{"type":"Point","coordinates":[22.4661,55.364]},"properties":{"state":"LT","name":"Lauksargiai"}},
{"type":"Feature","geometry":{"type":"Point","coordinates":[24.5247,54.1987]},"properties":{"state":"LT","name":"Naujieji Valkininkai"}},
{"type":"Feature","geometry":{"type":"Point","coordinates":[22.0275,55.1902]},"properties":{"state":"LT","name":"Panemunė"}},
{"type":"Feature","geometry":{"type":"Point","coordinates":[24.7429,54.2459]},"properties":{"state":"LT","name":"Pirčiupiai"}},
{"type":"Feature","geometry":{"type":"Point","coordinates":[24.1506,55.3879]},"properties":{"state":"LT","name":"Ramygala"}},
{"type":"Feature","geometry":{"type":"Point","coordinates":[24.1328,54.5292]},"properties":{"state":"LT","name":"Trakai"}},
{"type":"Feature","geometry":{"type":"Point","coordinates":[24.9582,55.3827]},"properties":{"state":"LT","name":"Vidiškiai"}},
{"type":"Feature","geometry":{"type":"Point","coordinates":[24.3415,57.1824]},"properties":{"state":"LV","name":"Baltezers"}},
{"type":"Feature","geometry":{"type":"Point","coordinates":[26.9709,56.8971]},"properties":{"state":"LV","name":"Dricāni"}},
{"type":"Feature","geometry":{"type":"Point","coordinates":[23.6258,56.4567]},"properties":{"state":"LV","name":"Eleja"}},
{"type":"Feature","geometry":{"type":"Point","coordinates":[22.7416,57.4152]},"properties":{"state":"LV","name":"Engure"}},
{"type":"Feature","geometry":{"type":"Point","coordinates":[26.1455,56.5536]},"properties":{"state":"LV","name":"Kūkas"}},
{"type":"Feature","geometry":{"type":"Point","coordinates":[27.0484,56.2825]},"properties":{"state":"LV","name":"Malta"}},
{"type":"Feature","geometry":{"type":"Point","coordinates":[24.783,57.4422]},"properties":{"state":"LV","name":"Plācis"}},
{"type":"Feature","geometry":{"type":"Point","coordinates":[24.4113,57.8572]},"properties":{"state":"LV","name":"Salacgrīva"}},
{"type":"Feature","geometry":{"type":"Point","coordinates":[22.3246,56.6613]},"properties":{"state":"LV","name":"Skrunda"}},
{"type":"Feature","geometry":{"type":"Point","coordinates":[26.0166,55.9812]},"properties":{"state":"LV","name":"Svente"}},
{"type":"Feature","geometry":{"type":"Point","coordinates":[25.8932,57.7733]},"properties":{"state":"LV","name":"Valka"}},
{"type":"Feature","geometry":{"type":"Point","coordinates":[26.2171,57.3373]},"properties":{"state":"LV","name":"Velēna"}},
{"type":"Feature","geometry":{"type":"Point","coordinates":[26.3534,57.5112]},"properties":{"state":"LV","name":"Vireši"}},
{"type":"Feature","geometry":{"type":"Point","coordinates":[19.3461,43.3024]},"properties":{"state":"ME","name":"Budečevica"}},
{"type":"Feature","geometry":{"type":"Point","coordinates":[19.0746,42.373]},"properties":{"state":"ME","name":"Mahala"}},
{"type":"Feature","geometry":{"type":"Point","coordinates":[19.6583,43.1235]},"properties":{"state":"ME","name":"Ribarevina"}},
{"type":"Feature","geometry":{"type":"Point","coordinates":[20.0114,43.045]},"properties":{"state":"ME","name":"Rožaje"}},
{"type":"Feature","geometry":{"type":"Point","coordinates":[21.1369,41.2491]},"properties":{"state":"MK","name":"Dihovo"}},
{"type":"Feature","geometry":{"type":"Point","coordinates":[20.8112,41.6626]},"properties":{"state":"MK","name":"Izvor"}},
{"type":"Feature","geometry":{"type":"Point","coordinates":[20.9481,41.3728]},"properties":{"state":"MK","name":"Podmolje"}},
{"type":"Feature","geometry":{"type":"Point","coordinates":[6.5816,58.237]},"properties":{"state":"NO","name":"Vigeland"}},
{"type":"Feature","geometry":{"type":"Point","coordinates":[-7.3528,40.4059]},"properties":{"state":"PT","name":"Arrifana"}},
{"type":"Feature","geometry":{"type":"Point","coordinates":[-8.7734,37.4618]},"properties":{"state":"PT","name":"Cercal"}},
{"type":"Feature","geometry":{"type":"Point","coordinates":[-8.8656,37.5169]},"properties":{"state":"PT","name":"Sonega"}},
{"type":"Feature","geometry":{"type":"Point","coordinates":[-8.636,40.0335]},"properties":{"state":"PT","name":"Souselas"}},
{"type":"Feature","geometry":{"type":"Point","coordinates":[-7.836,40.2352]},"properties":{"state":"PT","name":"Vale de Estrela"}},
{"type":"Feature","geometry":{"type":"Point","coordinates":[28.5188,43.8708]},"properties":{"state":"RO","name":"2 Mai"}},
{"type":"Feature","geometry":{"type":"Point","coordinates":[26.4218,44.8672]},"properties":{"state":"RO","name":"Afumați"}},
{"type":"Feature","geometry":{"type":"Point","coordinates":[21.4623,46.2405]},"properties":{"state":"RO","name":"Aradul Nou"}},
{"type":"Feature","geometry":{"type":"Point","coordinates":[24.0101,44.6224]},"properties":{"state":"RO","name":"Balș"}},
{"type":"Feature","geometry":{"type":"Point","coordinates":[25.7609,47.1498]},"properties":{"state":"RO","name":"Bistricioara"}},
{"type":"Feature","geometry":{"type":"Point","coordinates":[27.5662,44.5738]},"properties":{"state":"RO","name":"Borcea"}},
{"type":"Feature","geometry":{"type":"Point","coordinates":[22.6623,47.2322]},"properties":{"state":"RO","name":"Borod"}},
{"type":"Feature","geometry":{"type":"Point","coordinates":[25.6001,47.1339]},"properties":{"state":"RO","name":"Borsec"}},
{"type":"Feature","geometry":{"type":"Point","coordinates":[27.8233,45.2037]},"properties":{"state":"RO","name":"Brăila"}},
{"type":"Feature","geometry":{"type":"Point","coordinates":[25.1464,45.5929]},"properties":{"state":"RO","name":"Bran"}},
{"type":"Feature","geometry":{"type":"Point","coordinates":[22.3537,45.2338]},"properties":{"state":"RO","name":"Buchin"}},
{"type":"Feature","geometry":{"type":"Point","coordinates":[26.8314,45.3477]},"properties":{"state":"RO","name":"Buzău"}},
{"type":"Feature","geometry":{"type":"Point","coordinates":[24.726,46.4985]},"properties":{"state":"RO","name":"Corunca"}},
{"type":"Feature","geometry":{"type":"Point","coordinates":[22.2823,45.9851]},"properties":{"state":"RO","name":"Coșava"}},
{"type":"Feature","geometry":{"type":"Point","coordinates":[26.5832,44.9593]},"properties":{"state":"RO","name":"Coșereni"}},
{"type":"Feature","geometry":{"type":"Point","coordinates":[22.9573,45.9838]},"properties":{"state":"RO","name":"Deva"}},
{"type":"Feature","geometry":{"type":"Point","coordinates":[21.5865,46.2328]},"properties":{"state":"RO","name":"Fântânele"}},
{"type":"Feature","geometry":{"type":"Point","coordinates":[23.4607,44.7738]},"properties":{"state":"RO","name":"Filiași"}},
{"type":"Feature","geometry":{"type":"Point","coordinates":[23.1109,47.0358]},"properties":{"state":"RO","name":"Gilău"}},
{"type":"Feature","geometry":{"type":"Point","coordinates":[25.8461,44.2568]},"properties":{"state":"RO","name":"Giurgiu"}},
{"type":"Feature","geometry":{"type":"Point","coordinates":[25.7268,47.1497]},"properties":{"state":"RO","name":"Grințieș"}},
{"type":"Feature","geometry":{"type":"Point","coordinates":[26.7781,46.4758]},"properties":{"state":"RO","name":"Helegiu"}},
{"type":"Feature","geometry":{"type":"Point","coordinates":[27.2877,45.346]},"properties":{"state":"RO","name":"Ianca"}},
{"type":"Feature","geometry":{"type":"Point","coordinates":[22.4216,46.1878]},"properties":{"state":"RO","name":"Ilia"}},
{"type":"Feature","geometry":{"type":"Point","coordinates":[23.6429,46.3088]},"properties":{"state":"RO","name":"Lancrăm"}},
{"type":"Feature","geometry":{"type":"Point","coordinates":[21.9363,46.2651]},"properties":{"state":"RO","name":"Lipova"}},
{"type":"Feature","geometry":{"type":"Point","coordinates":[28.5025,44.6283]},"properties":{"state":"RO","name":"Lumina"}},
{"type":"Feature","geometry":{"type":"Point","coordinates":[24.1508,46.6424]},"properties":{"state":"RO","name":"Luncani"}},
{"type":"Feature","geometry":{"type":"Point","coordinates":[22.2606,45.0372]},"properties":{"state":"RO","name":"Mehadia"}},
{"type":"Feature","geometry":{"type":"Point","coordinates":[28.5753,44.6472]},"properties":{"state":"RO","name":"Năvodari"}},
{"type":"Feature","geometry":{"type":"Point","coordinates":[28.4674,44.5329]},"properties":{"state":"RO","name":"Ovidiu"}},
{"type":"Feature","geometry":{"type":"Point","coordinates":[26.0689,47.2949]},"properties":{"state":"RO","name":"Poiana Largului"}},
{"type":"Feature","geometry":{"type":"Point","coordinates":[26.9149,44.59]},"properties":{"state":"RO","name":"Răzvani"}},
{"type":"Feature","geometry":{"type":"Point","coordinates":[24.8126,47.058]},"properties":{"state":"RO","name":"Reghin"}},
{"type":"Feature","geometry":{"type":"Point","coordinates":[23.2693,45.0406]},"properties":{"state":"RO","name":"Rovinari"}},
{"type":"Feature","geometry":{"type":"Point","coordinates":[22.5369,46.1211]},"properties":{"state":"RO","name":"Săcămaș"}},
{"type":"Feature","geometry":{"type":"Point","coordinates":[22.0276,47.0843]},"properties":{"state":"RO","name":"Sântion"}},
{"type":"Feature","geometry":{"type":"Point","coordinates":[25.1824,46.2152]},"properties":{"state":"RO","name":"Saschiz"}},
{"type":"Feature","geometry":{"type":"Point","coordinates":[23.4635,46.2046]},"properties":{"state":"RO","name":"Sebeș"}},
{"type":"Feature","geometry":{"type":"Point","coordinates":[24.6328,44.7196]},"properties":{"state":"RO","name":"Slatina"}},
{"type":"Feature","geometry":{"type":"Point","coordinates":[28.1283,46.2885]},"properties":{"state":"RO","name":"Slobozia Oancea"}},
{"type":"Feature","geometry":{"type":"Point","coordinates":[27.9682,45.1658]},"properties":{"state":"RO","name":"Smârdan"}},
{"type":"Feature","geometry":{"type":"Point","coordinates":[26.9794,47.2805]},"properties":{"state":"RO","name":"Târgu Frumos"}},
{"type":"Feature","geometry":{"type":"Point","coordinates":[22.2681,47.0913]},"properties":{"state":"RO","name":"Tileagd"}},
{"type":"Feature","geometry":{"type":"Point","coordinates":[25.423,47.089]},"properties":{"state":"RO","name":"Toplița"}},
{"type":"Feature","geometry":{"type":"Point","coordinates":[22.3513,47.2487]},"properties":{"state":"RO","name":"Uileacu de Criș"}},
{"type":"Feature","geometry":{"type":"Point","coordinates":[24.2773,46.5851]},"properties":{"state":"RO","name":"Ungheni"}},
{"type":"Feature","geometry":{"type":"Point","coordinates":[27.2426,47.3741]},"properties":{"state":"RO","name":"Valea Lupului"}},
{"type":"Feature","geometry":{"type":"Point","coordinates":[23.1652,45.2046]},"properties":{"state":"RO","name":"Vârț"}},
{"type":"Feature","geometry":{"type":"Point","coordinates":[19.6566,45.7746]},"properties":{"state":"RS","name":"Feketić"}},
{"type":"Feature","geometry":{"type":"Point","coordinates":[20.3344,44.0648]},"properties":{"state":"RS","name":"Međuvršje"}},
{"type":"Feature","geometry":{"type":"Point","coordinates":[21.1299,45.213]},"properties":{"state":"RS","name":"Pančevo"}},
{"type":"Feature","geometry":{"type":"Point","coordinates":[21.3109,44.0791]},"properties":{"state":"RS","name":"Paraćin"}},
{"type":"Feature","geometry":{"type":"Point","coordinates":[21.4965,43.344]},"properties":{"state":"RS","name":"Prokuplje"}},
{"type":"Feature","geometry":{"type":"Point","coordinates":[20.0766,43.9813]},"properties":{"state":"RS","name":"Užice"}},
{"type":"Feature","geometry":{"type":"Point","coordinates":[21.3449,45.2088]},"properties":{"state":"RS","name":"Vršac"}},
{"type":"Feature","geometry":{"type":"Point","coordinates":[21.4334,54.7445]},"properties":{"state":"RU","name":"Bol'shakovo"}},
{"type":"Feature","geometry":{"type":"Point","coordinates":[28.6099,57.6683]},"properties":{"state":"RU","name":"Cheryekha"}},
{"type":"Feature","geometry":{"type":"Point","coordinates":[27.7911,58.8993]},"properties":{"state":"RU","name":"Dobruchi"}},
{"type":"Feature","geometry":{"type":"Point","coordinates":[29.2164,58.1954]},"properties":{"state":"RU","name":"Feofilova Pustyn'"}},
{"type":"Feature","geometry":{"type":"Point","coordinates":[28.19,59.4024]},"properties":{"state":"RU","name":"Ivangorod"}},
{"type":"Feature","geometry":{"type":"Point","coordinates":[21.9002,54.592]},"properties":{"state":"RU","name":"Krasnopolyanskoye"}},
{"type":"Feature","geometry":{"type":"Point","coordinates":[28.6035,59.8]},"properties":{"state":"RU","name":"Lomonosov"}},
{"type":"Feature","geometry":{"type":"Point","coordinates":[21.5347,54.9415]},"properties":{"state":"RU","name":"Novokolkhoznoye"}},
{"type":"Feature","geometry":{"type":"Point","coordinates":[28.7309,59.4812]},"properties":{"state":"RU","name":"Opol'ye"}},
{"type":"Feature","geometry":{"type":"Point","coordinates":[29.1063,59.2425]},"properties":{"state":"RU","name":"Ostrogovitsy"}},
{"type":"Feature","geometry":{"type":"Point","coordinates":[28.5386,57.3603]},"properties":{"state":"RU","name":"Ostrov"}},
{"type":"Feature","geometry":{"type":"Point","coordinates":[29.2326,59.1172]},"properties":{"state":"RU","name":"Sabsk"}},
{"type":"Feature","geometry":{"type":"Point","coordinates":[31.4017,60.0906]},"properties":{"state":"RU","name":"Shcheglovo"}},
{"type":"Feature","geometry":{"type":"Point","coordinates":[29.5399,59.0392]},"properties":{"state":"RU","name":"Sitenka"}},
{"type":"Feature","geometry":{"type":"Point","coordinates":[21.8727,55.062]},"properties":{"state":"RU","name":"Sovetsk"}},
{"type":"Feature","geometry":{"type":"Point","coordinates":[27.7356,58.6156]},"properties":{"state":"RU","name":"Spitsino"}},
{"type":"Feature","geometry":{"type":"Point","coordinates":[31.2701,60.0068]},"properties":{"state":"RU","name":"Staraya"}},
{"type":"Feature","geometry":{"type":"Point","coordinates":[28.5405,57.5661]},"properties":{"state":"RU","name":"Stremutka"}},
{"type":"Feature","geometry":{"type":"Point","coordinates":[29.8539,59.2407]},"properties":{"state":"RU","name":"Vyra"}},
{"type":"Feature","geometry":{"type":"Point","coordinates":[27.9107,57.0181]},"properties":{"state":"RU","name":"Vyshgorodok"}},
{"type":"Feature","geometry":{"type":"Point","coordinates":[28.0242,58.3907]},"properties":{"state":"RU","name":"Yelizarovo"}},
{"type":"Feature","geometry":{"type":"Point","coordinates":[16.0639,58.077]},"properties":{"state":"SE","name":"Åtvidaberg"}},
{"type":"Feature","geometry":{"type":"Point","coordinates":[13.3139,58.2361]},"properties":{"state":"SE","name":"Falköping"}},
{"type":"Feature","geometry":{"type":"Point","coordinates":[12.5586,58.4024]},"properties":{"state":"SE","name":"Grästorp"}},
{"type":"Feature","geometry":{"type":"Point","coordinates":[12.8627,56.6803]},"properties":{"state":"SE","name":"Halmstad"}},
{"type":"Feature","geometry":{"type":"Point","coordinates":[14.9966,58.5257]},"properties":{"state":"SE","name":"Motala"}},
{"type":"Feature","geometry":{"type":"Point","coordinates":[13.6751,45.3841]},"properties":{"state":"SI","name":"Bertoki"}},
{"type":"Feature","geometry":{"type":"Point","coordinates":[14.1465,45.6547]},"properties":{"state":"SI","name":"Kozina"}},
{"type":"Feature","geometry":{"type":"Point","coordinates":[28.1376,41.5948]},"properties":{"state":"TR","name":"Ahmediye"}},
{"type":"Feature","geometry":{"type":"Point","coordinates":[26.6532,41.6436]},"properties":{"state":"TR","name":"Kuzucu"}},
{"type":"Feature","geometry":{"type":"Point","coordinates":[27.649,41.2884]},"properties":{"state":"TR","name":"Yenice"}},
{"type":"Feature","geometry":{"type":"Point","coordinates":[21.2718,42.6523]},"properties":{"state":"XK","name":"Çagllavicë"}},
{"type":"Feature","geometry":{"type":"Point","coordinates":[20.9591,42.8646]},"properties":{"state":"XK","name":"Fushë Kosovë"}}
]
}
